{
"type": "FeatureCollection",
"name": "rail_stations",
"bbox": [ 90.2202147, 23.503581, 0, 90.9488251, 24.3083055, 0 ],                                                                   
"features": [
{ "type": "Feature", "properties": { "Name": "Kamalapur Station", "Description": "" }, "bbox": [ 90.4262904, 23.7320296, 0.0, 90.4262904, 23.7320296, 0.0 ], "geometry": { "type": "Point", "coordinates": [ 90.4262904, 23.7320296, 0.0 ] } },
{ "type": "Feature", "properties": { "Name": "Gendaria Rail Station", "Description": "" }, "bbox": [ 90.4290103, 23.7014901, 0.0, 90.4290103, 23.7014901, 0.0 ], "geometry": { "type": "Point", "coordinates": [ 90.4290103, 23.7014901, 0.0 ] } },
{ "type": "Feature", "properties": { "Name": "Tejgaon Station", "Description": "" }, "bbox": [ 90.3947995, 23.7601812, 0.0, 90.3947995, 23.7601812, 0.0 ], "geometry": { "type": "Point", "coordinates": [ 90.3947995, 23.7601812, 0.0 ] } },
{ "type": "Feature", "properties": { "Name": "Banani Station", "Description": "" }, "bbox": [ 90.4008477, 23.7956417, 0.0, 90.4008477, 23.7956417, 0.0 ], "geometry": { "type": "Point", "coordinates": [ 90.4008477, 23.7956417, 0.0 ] } },
{ "type": "Feature", "properties": { "Name": "Cantonment Station", "Description": "" }, "bbox": [ 90.4104991, 23.8159655, 0.0, 90.4104991, 23.8159655, 0.0 ], "geometry": { "type": "Point", "coordinates": [ 90.4104991, 23.8159655, 0.0 ] } },
{ "type": "Feature", "properties": { "Name": "Airport Station", "Description": "" }, "bbox": [ 90.4079833, 23.8518708, 0.0, 90.4079833, 23.8518708, 0.0 ], "geometry": { "type": "Point", "coordinates": [ 90.4079833, 23.8518708, 0.0 ] } },
{ "type": "Feature", "properties": { "Name": "Keraniganj Station", "Description": "" }, "bbox": [ 90.4155224, 23.6488446, 0.0, 90.4155224, 23.6488446, 0.0 ], "geometry": { "type": "Point", "coordinates": [ 90.4155224, 23.6488446, 0.0 ] } },
{ "type": "Feature", "properties": { "Name": "Shyampur Station", "Description": "" }, "bbox": [ 90.4428292, 23.6843504, 0.0, 90.4428292, 23.6843504, 0.0 ], "geometry": { "type": "Point", "coordinates": [ 90.4428292, 23.6843504, 0.0 ] } },
{ "type": "Feature", "properties": { "Name": "Pagla Train Station", "Description": "" }, "bbox": [ 90.4600755, 23.6656858, 0.0, 90.4600755, 23.6656858, 0.0 ], "geometry": { "type": "Point", "coordinates": [ 90.4600755, 23.6656858, 0.0 ] } },
{ "type": "Feature", "properties": { "Name": "Fatulla Train Station", "Description": "" }, "bbox": [ 90.4742293, 23.6503488, 0.0, 90.4742293, 23.6503488, 0.0 ], "geometry": { "type": "Point", "coordinates": [ 90.4742293, 23.6503488, 0.0 ] } },
{ "type": "Feature", "properties": { "Name": "Chashara Station", "Description": "" }, "bbox": [ 90.4983057, 23.6243568, 0.0, 90.4983057, 23.6243568, 0.0 ], "geometry": { "type": "Point", "coordinates": [ 90.4983057, 23.6243568, 0.0 ] } },
{ "type": "Feature", "properties": { "Name": "Narayanganj Station", "Description": "" }, "bbox": [ 90.5064897, 23.6208344, 0.0, 90.5064897, 23.6208344, 0.0 ], "geometry": { "type": "Point", "coordinates": [ 90.5064897, 23.6208344, 0.0 ] } },
{ "type": "Feature", "properties": { "Name": "Arikhola Station", "Description": "" }, "bbox": [ 90.5542432, 23.9285726, 0.0, 90.5542432, 23.9285726, 0.0 ], "geometry": { "type": "Point", "coordinates": [ 90.5542432, 23.9285726, 0.0 ] } },
{ "type": "Feature", "properties": { "Name": "Bangabandhu Hi-Tech City Railway Station", "Description": "" }, "bbox": [ 90.2202147, 24.0626727, 0.0, 90.2202147, 24.0626727, 0.0 ], "geometry": { "type": "Point", "coordinates": [ 90.2202147, 24.0626727, 0.0 ] } },
{ "type": "Feature", "properties": { "Name": "Dhirasram Railway Station", "Description": "" }, "bbox": [ 90.4154755, 23.9589086, 0.0, 90.4154755, 23.9589086, 0.0 ], "geometry": { "type": "Point", "coordinates": [ 90.4154755, 23.9589086, 0.0 ] } },
{ "type": "Feature", "properties": { "Name": "Rajendrapur Railway Station", "Description": "" }, "bbox": [ 90.449093, 24.0971034, 0.0, 90.449093, 24.0971034, 0.0 ], "geometry": { "type": "Point", "coordinates": [ 90.449093, 24.0971034, 0.0 ] } },
{ "type": "Feature", "properties": { "Name": "Bhawal Station", "Description": "" }, "bbox": [ 90.4344278, 24.0486225, 0.0, 90.4344278, 24.0486225, 0.0 ], "geometry": { "type": "Point", "coordinates": [ 90.4344278, 24.0486225, 0.0 ] } },
{ "type": "Feature", "properties": { "Name": "Nolchata Station", "Description": "" }, "bbox": [ 90.511078, 23.9327445, 0.0, 90.511078, 23.9327445, 0.0 ], "geometry": { "type": "Point", "coordinates": [ 90.511078, 23.9327445, 0.0 ] } },
{ "type": "Feature", "properties": { "Name": "Pubail Railway Station", "Description": "" }, "bbox": [ 90.4784068, 23.9362976, 0.0, 90.4784068, 23.9362976, 0.0 ], "geometry": { "type": "Point", "coordinates": [ 90.4784068, 23.9362976, 0.0 ] } },
{ "type": "Feature", "properties": { "Name": "Izzatpur Railway Station", "Description": "" }, "bbox": [ 90.4626479, 24.1426524, 0.0, 90.4626479, 24.1426524, 0.0 ], "geometry": { "type": "Point", "coordinates": [ 90.4626479, 24.1426524, 0.0 ] } },
{ "type": "Feature", "properties": { "Name": "Joydebpur Junction", "Description": "" }, "bbox": [ 90.4201756, 23.9981421, 0.0, 90.4201756, 23.9981421, 0.0 ], "geometry": { "type": "Point", "coordinates": [ 90.4201756, 23.9981421, 0.0 ] } },
{ "type": "Feature", "properties": { "Name": "Kaoraid Railway Station", "Description": "" }, "bbox": [ 90.5122709, 24.3083055, 0.0, 90.5122709, 24.3083055, 0.0 ], "geometry": { "type": "Point", "coordinates": [ 90.5122709, 24.3083055, 0.0 ] } },
{ "type": "Feature", "properties": { "Name": "Mouchak Rail Station", "Description": "" }, "bbox": [ 90.2823186, 24.0387187, 0.0, 90.2823186, 24.0387187, 0.0 ], "geometry": { "type": "Point", "coordinates": [ 90.2823186, 24.0387187, 0.0 ] } },
{ "type": "Feature", "properties": { "Name": "Satkhamair Rail Station", "Description": "" }, "bbox": [ 90.4900369, 24.2340805, 0.0, 90.4900369, 24.2340805, 0.0 ], "geometry": { "type": "Point", "coordinates": [ 90.4900369, 24.2340805, 0.0 ] } },
{ "type": "Feature", "properties": { "Name": "Sreepur Station", "Description": "" }, "bbox": [ 90.479579, 24.1992176, 0.0, 90.479579, 24.1992176, 0.0 ], "geometry": { "type": "Point", "coordinates": [ 90.479579, 24.1992176, 0.0 ] } },
{ "type": "Feature", "properties": { "Name": "Tongi Junction", "Description": "" }, "bbox": [ 90.4084504, 23.89859, 0.0, 90.4084504, 23.89859, 0.0 ], "geometry": { "type": "Point", "coordinates": [ 90.4084504, 23.89859, 0.0 ] } },
{ "type": "Feature", "properties": { "Name": "Sikarpur-Nimtola Railway Station, Munshiganj", "Description": "" }, "bbox": [ 90.3266802, 23.610671, 0.0, 90.3266802, 23.610671, 0.0 ], "geometry": { "type": "Point", "coordinates": [ 90.3266802, 23.610671, 0.0 ] } },
{ "type": "Feature", "properties": { "Name": "Mawa Railway Station, Munshiganj", "Description": "" }, "bbox": [ 90.2741385, 23.503581, 0.0, 90.2741385, 23.503581, 0.0 ], "geometry": { "type": "Point", "coordinates": [ 90.2741385, 23.503581, 0.0 ] } },
{ "type": "Feature", "properties": { "Name": "Sreenagar Railway Station, Munshiganj", "Description": "" }, "bbox": [ 90.2913941, 23.5375351, 0.0, 90.2913941, 23.5375351, 0.0 ], "geometry": { "type": "Point", "coordinates": [ 90.2913941, 23.5375351, 0.0 ] } },
{ "type": "Feature", "properties": { "Name": "Amirgonj Railway Station, Narsingdi", "Description": "" }, "bbox": [ 90.7724114, 23.9357752, 0.0, 90.7724114, 23.9357752, 0.0 ], "geometry": { "type": "Point", "coordinates": [ 90.7724114, 23.9357752, 0.0 ] } },
{ "type": "Feature", "properties": { "Name": "Khanabari Railway Station, Narsingdi", "Description": "" }, "bbox": [ 90.7984449, 23.9534382, 0.0, 90.7984449, 23.9534382, 0.0 ], "geometry": { "type": "Point", "coordinates": [ 90.7984449, 23.9534382, 0.0 ] } },
{ "type": "Feature", "properties": { "Name": "Hatuvanga Railway Station, Narsingdi", "Description": "" }, "bbox": [ 90.8240183, 23.9695344, 0.0, 90.8240183, 23.9695344, 0.0 ], "geometry": { "type": "Point", "coordinates": [ 90.8240183, 23.9695344, 0.0 ] } },
{ "type": "Feature", "properties": { "Name": "Methikanda Railway Station, Narsingdi", "Description": "" }, "bbox": [ 90.8669202, 23.992871, 0.0, 90.8669202, 23.992871, 0.0 ], "geometry": { "type": "Point", "coordinates": [ 90.8669202, 23.992871, 0.0 ] } },
{ "type": "Feature", "properties": { "Name": "Shrinidhi Railway Station, Narsingdi", "Description": "" }, "bbox": [ 90.9023916, 24.0057867, 0.0, 90.9023916, 24.0057867, 0.0 ], "geometry": { "type": "Point", "coordinates": [ 90.9023916, 24.0057867, 0.0 ] } },
{ "type": "Feature", "properties": { "Name": "Doulatkandi Railway Station, Narsingdi", "Description": "" }, "bbox": [ 90.9488251, 24.023006, 0.0, 90.9488251, 24.023006, 0.0 ], "geometry": { "type": "Point", "coordinates": [ 90.9488251, 24.023006, 0.0 ] } },
{ "type": "Feature", "properties": { "Name": "Narsingdi Railway Station, Narsingdi", "Description": "" }, "bbox": [ 90.7211665, 23.9309433, 0.0, 90.7211665, 23.9309433, 0.0 ], "geometry": { "type": "Point", "coordinates": [ 90.7211665, 23.9309433, 0.0 ] } },
{ "type": "Feature", "properties": { "Name": "Ghorashal Railway Station, Narsingdi", "Description": "" }, "bbox": [ 90.633923, 23.9378547, 0.0, 90.633923, 23.9378547, 0.0 ], "geometry": { "type": "Point", "coordinates": [ 90.633923, 23.9378547, 0.0 ] } },
{ "type": "Feature", "properties": { "Name": "Ghorashal Flag Railway Station, Narsingdi", "Description": "" }, "bbox": [ 90.6199384, 23.9405303, 0.0, 90.6199384, 23.9405303, 0.0 ], "geometry": { "type": "Point", "coordinates": [ 90.6199384, 23.9405303, 0.0 ] } },
{ "type": "Feature", "properties": { "Name": "Jinarodi Railway Station, Narsingdi", "Description": "" }, "bbox": [ 90.6742726, 23.9304506, 0.0, 90.6742726, 23.9304506, 0.0 ], "geometry": { "type": "Point", "coordinates": [ 90.6742726, 23.9304506, 0.0 ] } }
]
}
